[
  {
    "name": "New York Plumbing Supply",
    "osm_id": 12909124956,
    "osm_value": "hardware",
    "street": "28th Avenue",
    "housenumber": "37-08",
    "city": "New York",
    "county": "",
    "state": "New York",
    "postcode": "11103",
    "country": "United States",
    "countrycode": "US",
    "lat": 40.7659366,
    "lon": -73.9150217
  },
  {
    "name": "New York Plumbing Supply",
    "osm_id": 11539206717,
    "osm_value": "hardware",
    "street": "Columbus Avenue",
    "housenumber": "933",
    "city": "New York",
    "county": "",
    "state": "NY",
    "postcode": "10025",
    "country": "United States",
    "countrycode": "US",
    "lat": 40.7989423,
    "lon": -73.9628493
  },
  {
    "name": "Samuel & Sons Plumbing & Heating",
    "osm_id": 13474248153,
    "osm_value": "plumber",
    "street": "Guy R Brewer Boulevard",
    "housenumber": "137-42",
    "city": "New York",
    "county": "",
    "state": "New York",
    "postcode": "11434",
    "country": "United States",
    "countrycode": "US",
    "lat": 40.6709397,
    "lon": -73.7740418
  },
  {
    "name": "Watson's Plumbing & Heating",
    "osm_id": 11748769119,
    "osm_value": "hardware",
    "street": "Edgecombe Avenue",
    "housenumber": "",
    "city": "New York",
    "county": "",
    "state": "New York",
    "postcode": "10039",
    "country": "United States",
    "countrycode": "US",
    "lat": 40.8298369,
    "lon": -73.9401369
  },
  {
    "name": "Henry Quentzel Plumbing Supply Co.",
    "osm_id": 13912863401,
    "osm_value": "plumber",
    "street": "Throop Avenue",
    "housenumber": "377",
    "city": "New York",
    "county": "",
    "state": "New York",
    "postcode": "11221",
    "country": "United States",
    "countrycode": "US",
    "lat": 40.6903899,
    "lon": -73.9421078
  },
  {
    "name": "Downtown Plumbing & Heating",
    "osm_id": 6446722308,
    "osm_value": "plumber",
    "street": "Hicks Street",
    "housenumber": "577",
    "city": "New York",
    "county": "",
    "state": "New York",
    "postcode": "11231",
    "country": "United States",
    "countrycode": "US",
    "lat": 40.6833563,
    "lon": -74.0014163
  },
  {
    "name": "Great Kills Showroom Plumbing Fixtures",
    "osm_id": 11669827701,
    "osm_value": "bathroom_furnishing",
    "street": "Wiman Avenue",
    "housenumber": "",
    "city": "New York",
    "county": "",
    "state": "New York",
    "postcode": "10308",
    "country": "United States",
    "countrycode": "US",
    "lat": 40.5413336,
    "lon": -74.1471703
  },
  {
    "name": "Duo Plumbing & Heating Corp.",
    "osm_id": 12456546167,
    "osm_value": "plumber",
    "street": "Androvette Street",
    "housenumber": "",
    "city": "New York",
    "county": "",
    "state": "New York",
    "postcode": "10309",
    "country": "United States",
    "countrycode": "US",
    "lat": 40.5351662,
    "lon": -74.2396511
  }
]