[
  {
    "name": "Madison Roofing",
    "osm_id": 13191522498,
    "osm_value": "roofer",
    "street": "Forest Avenue",
    "housenumber": "698",
    "city": "New York",
    "county": "",
    "state": "New York",
    "postcode": "10310",
    "country": "United States",
    "countrycode": "US",
    "lat": 40.6292066,
    "lon": -74.1124145
  },
  {
    "name": "GPS Roofing",
    "osm_id": 5346072553,
    "osm_value": "services",
    "street": "Myrtle Avenue",
    "housenumber": "67-43",
    "city": "New York",
    "county": "",
    "state": "New York",
    "postcode": "11418",
    "country": "United States",
    "countrycode": "US",
    "lat": 40.7017239,
    "lon": -73.8849294
  },
  {
    "name": "Premier Roofing",
    "osm_id": 248178995,
    "osm_value": "construction",
    "street": "Atlantic Avenue",
    "housenumber": "905",
    "city": "New York",
    "county": "",
    "state": "New York",
    "postcode": "11238",
    "country": "United States",
    "countrycode": "US",
    "lat": 40.6811566,
    "lon": -73.9628064
  },
  {
    "name": "USA Roofing Co",
    "osm_id": 249604027,
    "osm_value": "construction",
    "street": "34th Street",
    "housenumber": "149",
    "city": "New York",
    "county": "",
    "state": "New York",
    "postcode": "11232",
    "country": "United States",
    "countrycode": "US",
    "lat": 40.6562625,
    "lon": -74.0041837
  },
  {
    "name": "Right Roofing and Construction",
    "osm_id": 13688997906,
    "osm_value": "roofer",
    "street": "",
    "housenumber": "",
    "city": "Cicero",
    "county": "Onondaga",
    "state": "New York",
    "postcode": "13039",
    "country": "United States",
    "countrycode": "US",
    "lat": 43.175496,
    "lon": -76.1133433
  },
  {
    "name": "S & G Roofing",
    "osm_id": 11992488649,
    "osm_value": "roofer",
    "street": "State Street",
    "housenumber": "",
    "city": "Niskayuna",
    "county": "Schenectady County",
    "state": "New York",
    "postcode": "12304",
    "country": "United States",
    "countrycode": "US",
    "lat": 42.7679321,
    "lon": -73.8904156
  },
  {
    "name": "Superior Distribution Roofing & Building Materials",
    "osm_id": 812974261,
    "osm_value": "yes",
    "street": "New York Avenue",
    "housenumber": "526",
    "city": "Trenton",
    "county": "Mercer",
    "state": "NJ",
    "postcode": "08638",
    "country": "United States",
    "countrycode": "US",
    "lat": 40.2343073,
    "lon": -74.7497924
  },
  {
    "name": "Armstrong Roofing Corp.",
    "osm_id": 12677429768,
    "osm_value": "roofer",
    "street": "Hylan Boulevard",
    "housenumber": "2343",
    "city": "Staten Island",
    "county": "",
    "state": "NY",
    "postcode": "10306",
    "country": "United States",
    "countrycode": "US",
    "lat": 40.5744489,
    "lon": -74.1062545
  }
]