[
  {
    "name": "Phoenix Roofers by Allstate Roofing Contractors",
    "osm_id": 3130045315,
    "osm_value": "roofer",
    "street": "West Clarendon Avenue",
    "housenumber": "2955",
    "city": "Phoenix",
    "county": "Maricopa",
    "state": "AZ",
    "postcode": "85017",
    "country": "United States",
    "countrycode": "US",
    "lat": 33.4920623,
    "lon": -112.123692
  },
  {
    "name": "Phoenix Roofing",
    "osm_id": 9941778071,
    "osm_value": "roofer",
    "street": "East Thomas Road",
    "housenumber": "20",
    "city": "Phoenix",
    "county": "Maricopa",
    "state": "AZ",
    "postcode": "85012",
    "country": "United States",
    "countrycode": "US",
    "lat": 33.4806581,
    "lon": -112.07122
  },
  {
    "name": "USA Roofing",
    "osm_id": 896285032,
    "osm_value": "roofer",
    "street": "East Lone Cactus Drive",
    "housenumber": "2115",
    "city": "Phoenix",
    "county": "Maricopa",
    "state": "AZ",
    "postcode": "85024",
    "country": "United States",
    "countrycode": "US",
    "lat": 33.6800709,
    "lon": -112.0369616
  },
  {
    "name": "1st Class Foam Roofing and Coating, LLC",
    "osm_id": 3536339841,
    "osm_value": "roofer",
    "street": "West Happy Valley Road",
    "housenumber": "3820",
    "city": "Phoenix",
    "county": "Maricopa",
    "state": "AZ",
    "postcode": "85310",
    "country": "United States",
    "countrycode": "US",
    "lat": 33.7143041,
    "lon": -112.1416632
  },
  {
    "name": "Gorman Roofing Services Inc",
    "osm_id": 213325057,
    "osm_value": "roofer",
    "street": "East University Drive",
    "housenumber": "2229",
    "city": "Phoenix",
    "county": "Maricopa",
    "state": "AZ",
    "postcode": "85034",
    "country": "United States",
    "countrycode": "US",
    "lat": 33.4235399,
    "lon": -112.0340157
  },
  {
    "name": "Affirmax Roofing, Inc.",
    "osm_id": 954320120,
    "osm_value": "roofer",
    "street": "North 23rd Drive",
    "housenumber": "2233",
    "city": "Phoenix",
    "county": "Maricopa",
    "state": "AZ",
    "postcode": "85009",
    "country": "United States",
    "countrycode": "US",
    "lat": 33.4724854,
    "lon": -112.1095714
  },
  {
    "name": "Highland Commercial Roofing",
    "osm_id": 224195974,
    "osm_value": "roofer",
    "street": "East Wier Avenue",
    "housenumber": "3853",
    "city": "Phoenix",
    "county": "Maricopa",
    "state": "AZ",
    "postcode": "85040",
    "country": "United States",
    "countrycode": "US",
    "lat": 33.4031773,
    "lon": -111.9976483
  },
  {
    "name": "Durafoam Roofing LLC",
    "osm_id": 241198267,
    "osm_value": "roofer",
    "street": "East Mohawk Lane",
    "housenumber": "2810",
    "city": "Phoenix",
    "county": "Maricopa",
    "state": "AZ",
    "postcode": "85050",
    "country": "United States",
    "countrycode": "US",
    "lat": 33.6737459,
    "lon": -112.0219521
  }
]