[
  {
    "name": "Texas Solar Outfitters",
    "osm_id": 371733678,
    "osm_value": "warehouse",
    "street": "Shepherd Drive",
    "housenumber": "705",
    "city": "Houston",
    "county": "Harris",
    "state": "TX",
    "postcode": "77007",
    "country": "United States",
    "countrycode": "US",
    "lat": 29.7688132,
    "lon": -95.4097916
  },
  {
    "name": "Freedom Solar",
    "osm_id": 9189462975,
    "osm_value": "company",
    "street": "North Post Oak Road",
    "housenumber": "1234",
    "city": "Houston",
    "county": "Harris",
    "state": "TX",
    "postcode": "77055",
    "country": "United States",
    "countrycode": "US",
    "lat": 29.7885186,
    "lon": -95.4555877
  },
  {
    "name": "Inspire Solar",
    "osm_id": 1063444989,
    "osm_value": "company",
    "street": "East Hardy Road",
    "housenumber": "15200",
    "city": "Houston",
    "county": "Harris",
    "state": "TX",
    "postcode": "77039",
    "country": "United States",
    "countrycode": "US",
    "lat": 29.936416,
    "lon": -95.380021
  },
  {
    "name": "TriSMART Solar",
    "osm_id": 12818580525,
    "osm_value": "company",
    "street": "Northpark Central Drive",
    "housenumber": "600",
    "city": "Houston",
    "county": "Harris",
    "state": "TX",
    "postcode": "77073",
    "country": "United States",
    "countrycode": "US",
    "lat": 29.9917654,
    "lon": -95.4153502
  },
  {
    "name": "Royal Solaris Reception Hall",
    "osm_id": 238455592,
    "osm_value": "events_venue",
    "street": "Tidwell Road",
    "housenumber": "925",
    "city": "Houston",
    "county": "Harris",
    "state": "TX",
    "postcode": "77076",
    "country": "United States",
    "countrycode": "US",
    "lat": 29.8467222,
    "lon": -95.3634995
  }
]