[
  {
    "name": "Solar Preparatory STEAM School for Girls",
    "osm_id": 449158587,
    "osm_value": "school",
    "street": "North Henderson Avenue",
    "housenumber": "2617",
    "city": "Dallas",
    "county": "Dallas",
    "state": "TX",
    "postcode": "75206",
    "country": "United States",
    "countrycode": "US",
    "lat": 32.8162622,
    "lon": -96.7816201
  },
  {
    "name": "Solar Lane",
    "osm_id": 9966547,
    "osm_value": "residential",
    "street": "",
    "housenumber": "",
    "city": "Dallas",
    "county": "Dallas",
    "state": "Texas",
    "postcode": "75216",
    "country": "United States",
    "countrycode": "US",
    "lat": 32.7113748,
    "lon": -96.7442921
  },
  {
    "name": "Solar City Car Wash",
    "osm_id": 1473423379,
    "osm_value": "car_wash",
    "street": "Pioneer Road",
    "housenumber": "1210",
    "city": "Mesquite",
    "county": "Dallas",
    "state": "TX",
    "postcode": "75149",
    "country": "United States",
    "countrycode": "US",
    "lat": 32.7516154,
    "lon": -96.5830538
  },
  {
    "name": "1st Solar Nails and Spa",
    "osm_id": 13450709470,
    "osm_value": "beauty",
    "street": "North Clark Road",
    "housenumber": "125",
    "city": "Cedar Hill",
    "county": "Dallas",
    "state": "TX",
    "postcode": "75104",
    "country": "United States",
    "countrycode": "US",
    "lat": 32.5905147,
    "lon": -96.942874
  },
  {
    "name": "Freedom Solar",
    "osm_id": 9190029526,
    "osm_value": "energy_supplier",
    "street": "Corporate Dr",
    "housenumber": "4055",
    "city": "Grapevine",
    "county": "Dallas",
    "state": "TX",
    "postcode": "76051",
    "country": "United States",
    "countrycode": "US",
    "lat": 32.8710404,
    "lon": -96.9864846
  },
  {
    "name": "Solar Power Systems Plano",
    "osm_id": 3872431774,
    "osm_value": "electrician",
    "street": "Dallas Parkway",
    "housenumber": "6900",
    "city": "Plano",
    "county": "Collin",
    "state": "TX",
    "postcode": "75024",
    "country": "United States",
    "countrycode": "US",
    "lat": 33.0727979,
    "lon": -96.8236216
  },
  {
    "name": "Solar Preparatory School for Girls",
    "osm_id": 463900082,
    "osm_value": "school",
    "street": "North Henderson Avenue",
    "housenumber": "2617",
    "city": "Dallas",
    "county": "Dallas",
    "state": "Texas",
    "postcode": "75206",
    "country": "United States",
    "countrycode": "US",
    "lat": 32.8166369,
    "lon": -96.7812795
  }
]