[
  {
    "name": "Water Damage & Roofing of Austin",
    "osm_id": 5490140529,
    "osm_value": "roofer",
    "street": "Beck Circle",
    "housenumber": "9711",
    "city": "Austin",
    "county": "Travis",
    "state": "TX",
    "postcode": "78758",
    "country": "United States",
    "countrycode": "US",
    "lat": 30.3761213,
    "lon": -97.7126767
  },
  {
    "name": "Crown Plumbing & Water Damage Restoration",
    "osm_id": 13572938889,
    "osm_value": "plumber",
    "street": "Jones Maltsberger Road",
    "housenumber": "16170",
    "city": "San Antonio",
    "county": "Bexar",
    "state": "TX",
    "postcode": "78247",
    "country": "United States",
    "countrycode": "US",
    "lat": 29.5902459,
    "lon": -98.4384571
  },
  {
    "name": "247 Water Damage Restoration Katy",
    "osm_id": 11898426178,
    "osm_value": "damage_restoration",
    "street": "Kingsgate Lane",
    "housenumber": "26214",
    "city": "Katy",
    "county": "Fort Bend",
    "state": "TX",
    "postcode": "77494",
    "country": "United States",
    "countrycode": "US",
    "lat": 29.7681917,
    "lon": -95.8306275
  },
  {
    "name": "Water Damage & Roofing of Cedar Park",
    "osm_id": 5495412255,
    "osm_value": "roofer",
    "street": "Spanish Mustang Drive",
    "housenumber": "305",
    "city": "Cedar Park",
    "county": "Williamson",
    "state": "TX",
    "postcode": "78613",
    "country": "United States",
    "countrycode": "US",
    "lat": 30.5251378,
    "lon": -97.7587237
  },
  {
    "name": "US Water Damage Restoration of Austin",
    "osm_id": 13351365609,
    "osm_value": "cleaning",
    "street": "East Martin Luther King Jr Boulevard",
    "housenumber": "2105",
    "city": "78702",
    "county": "Travis",
    "state": "TX",
    "postcode": "78702",
    "country": "United States",
    "countrycode": "US",
    "lat": 30.2800021,
    "lon": -97.7190874
  },
  {
    "name": "Crown Plumbing & Water Damage Restoration",
    "osm_id": 13728930476,
    "osm_value": "plumber",
    "street": "George Road",
    "housenumber": "13526",
    "city": "San Antonio",
    "county": "Bexar",
    "state": "TX",
    "postcode": "78230",
    "country": "United States",
    "countrycode": "US",
    "lat": 29.5626341,
    "lon": -98.5384403
  },
  {
    "name": "247 Water Damage Restoration Katy",
    "osm_id": 11898426178,
    "osm_value": "company",
    "street": "Kingsgate Lane",
    "housenumber": "26214",
    "city": "Katy",
    "county": "Fort Bend",
    "state": "TX",
    "postcode": "77494",
    "country": "United States",
    "countrycode": "US",
    "lat": 29.7681917,
    "lon": -95.8306275
  },
  {
    "name": "City of Houston Water Facility Southwest Well #1",
    "osm_id": 1384815113,
    "osm_value": "industrial",
    "street": "Westpark Tollway",
    "housenumber": "8700",
    "city": "Houston",
    "county": "Harris",
    "state": "TX",
    "postcode": "77036",
    "country": "United States",
    "countrycode": "US",
    "lat": 29.7221095,
    "lon": -95.5166741
  }
]